[{"address":"252 West 46th Street","tamuAddress":"252 W 46TH ST New York NY ","latitude":"40.7591895426735","longitude":"-73.9867385774772"},{"address":"252 West 46th Street","tamuAddress":"252 W 46TH ST New York NY ","latitude":"40.7591895426735","longitude":"-73.9867385774772"},{"address":"252 West 46th Street","tamuAddress":"252 W 46TH ST New York NY ","latitude":"40.7591895426735","longitude":"-73.9867385774772"},{"address":"252 West 46th Street","tamuAddress":"252 W 46TH ST New York NY ","latitude":"40.7591895426735","longitude":"-73.9867385774772"},{"address":"252 West 46th Street","tamuAddress":"252 W 46TH ST New York NY ","latitude":"40.7591895426735","longitude":"-73.9867385774772"},{"address":"252 West 46th Street","tamuAddress":"252 W 46TH ST New York NY ","latitude":"40.7591895426735","longitude":"-73.9867385774772"},{"address":"252 West 46th Street","tamuAddress":"252 W 46TH ST New York NY ","latitude":"40.7591895426735","longitude":"-73.9867385774772"},{"address":"303 West 42nd Street","tamuAddress":"303 W 42ND ST New York NY ","latitude":"40.7573472021927","longitude":"-73.9898278386809"},{"address":"303 West 42nd Street","tamuAddress":"303 W 42ND ST New York NY ","latitude":"40.7573472021927","longitude":"-73.9898278386809"},{"address":"303 West 42nd Street","tamuAddress":"303 W 42ND ST New York NY ","latitude":"40.7573472021927","longitude":"-73.9898278386809"},{"address":"303 West 42nd Street","tamuAddress":"303 W 42ND ST New York NY ","latitude":"40.7573472021927","longitude":"-73.9898278386809"},{"address":"303 West 42nd Street","tamuAddress":"303 W 42ND ST New York NY ","latitude":"40.7573472021927","longitude":"-73.9898278386809"},{"address":"303 West 42nd Street","tamuAddress":"303 W 42ND ST New York NY ","latitude":"40.7573472021927","longitude":"-73.9898278386809"},{"address":"303 West 42nd Street","tamuAddress":"303 W 42ND ST New York NY ","latitude":"40.7573472021927","longitude":"-73.9898278386809"},{"address":"303 West 42nd Street","tamuAddress":"303 W 42ND ST New York NY ","latitude":"40.7573472021927","longitude":"-73.9898278386809"},{"address":"303 West 42nd Street","tamuAddress":"303 W 42ND ST New York NY ","latitude":"40.7573472021927","longitude":"-73.9898278386809"},{"address":"303 West 42nd Street","tamuAddress":"303 W 42ND ST New York NY ","latitude":"40.7573472021927","longitude":"-73.9898278386809"},{"address":"303 West 42nd Street","tamuAddress":"303 W 42ND ST New York NY ","latitude":"40.7573472021927","longitude":"-73.9898278386809"},{"address":"303 West 42nd Street","tamuAddress":"303 W 42ND ST New York NY ","latitude":"40.7573472021927","longitude":"-73.9898278386809"},{"address":"303 West 42nd Street","tamuAddress":"303 W 42ND ST New York NY ","latitude":"40.7573472021927","longitude":"-73.9898278386809"},{"address":"303 West 42nd Street","tamuAddress":"303 W 42ND ST New York NY ","latitude":"40.7573472021927","longitude":"-73.9898278386809"},{"address":"305 7th Avenue","tamuAddress":"305 7TH AVE New York NY ","latitude":"40.7484449615029","longitude":"-73.9923692557924"},{"address":"1 West 53rd Street","tamuAddress":"1 W 53RD ST New York NY ","latitude":"40.7605078757684","longitude":"-73.9758124645304"},{"address":"303 West 42nd Street","tamuAddress":"303 W 42ND ST New York NY ","latitude":"40.7573472021927","longitude":"-73.9898278386809"},{"address":"303 West 42nd Street","tamuAddress":"303 W 42ND ST New York NY ","latitude":"40.7573472021927","longitude":"-73.9898278386809"},{"address":"303 West 42nd Street","tamuAddress":"303 W 42ND ST New York NY ","latitude":"40.7573472021927","longitude":"-73.9898278386809"},{"address":"303 West 42nd Street","tamuAddress":"303 W 42ND ST New York NY ","latitude":"40.7573472021927","longitude":"-73.9898278386809"},{"address":"303 West 42nd Street","tamuAddress":"303 W 42ND ST New York NY ","latitude":"40.7573472021927","longitude":"-73.9898278386809"},{"address":"303 West 42nd Street","tamuAddress":"303 W 42ND ST New York NY ","latitude":"40.7573472021927","longitude":"-73.9898278386809"},{"address":"303 West 42nd Street","tamuAddress":"303 W 42ND ST New York NY ","latitude":"40.7573472021927","longitude":"-73.9898278386809"},{"address":"303 West 42nd Street","tamuAddress":"303 W 42ND ST New York NY ","latitude":"40.7573472021927","longitude":"-73.9898278386809"},{"address":"303 West 42nd Street","tamuAddress":"303 W 42ND ST New York NY ","latitude":"40.7573472021927","longitude":"-73.9898278386809"},{"address":"303 West 42nd Street","tamuAddress":"303 W 42ND ST New York NY ","latitude":"40.7573472021927","longitude":"-73.9898278386809"},{"address":"303 West 42nd Street","tamuAddress":"303 W 42ND ST New York NY ","latitude":"40.7573472021927","longitude":"-73.9898278386809"},{"address":"303 West 42nd Street","tamuAddress":"303 W 42ND ST New York NY ","latitude":"40.7573472021927","longitude":"-73.9898278386809"},{"address":"303 West 42nd Street","tamuAddress":"303 W 42ND ST New York NY ","latitude":"40.7573472021927","longitude":"-73.9898278386809"},{"address":"303 West 42nd Street","tamuAddress":"303 W 42ND ST New York NY ","latitude":"40.7573472021927","longitude":"-73.9898278386809"},{"address":"303 West 42nd Street","tamuAddress":"303 W 42ND ST New York NY ","latitude":"40.7573472021927","longitude":"-73.9898278386809"},{"address":"303 West 42nd Street","tamuAddress":"303 W 42ND ST New York NY ","latitude":"40.7573472021927","longitude":"-73.9898278386809"},{"address":"303 West 42nd Street","tamuAddress":"303 W 42ND ST New York NY ","latitude":"40.7573472021927","longitude":"-73.9898278386809"},{"address":"303 West 42nd Street","tamuAddress":"303 W 42ND ST New York NY ","latitude":"40.7573472021927","longitude":"-73.9898278386809"},{"address":"303 West 42nd Street","tamuAddress":"303 W 42ND ST New York NY ","latitude":"40.7573472021927","longitude":"-73.9898278386809"},{"address":"303 West 42nd Street","tamuAddress":"303 W 42ND ST New York NY ","latitude":"40.7573472021927","longitude":"-73.9898278386809"},{"address":"303 West 42nd Street","tamuAddress":"303 W 42ND ST New York NY ","latitude":"40.7573472021927","longitude":"-73.9898278386809"},{"address":"303 West 42nd Street","tamuAddress":"303 W 42ND ST New York NY ","latitude":"40.7573472021927","longitude":"-73.9898278386809"},{"address":"303 West 42nd Street","tamuAddress":"303 W 42ND ST New York NY ","latitude":"40.7573472021927","longitude":"-73.9898278386809"},{"address":"303 West 42nd Street","tamuAddress":"303 W 42ND ST New York NY ","latitude":"40.7573472021927","longitude":"-73.9898278386809"},{"address":"303 West 42nd Street","tamuAddress":"303 W 42ND ST New York NY ","latitude":"40.7573472021927","longitude":"-73.9898278386809"},{"address":"303 West 42nd Street","tamuAddress":"303 W 42ND ST New York NY ","latitude":"40.7573472021927","longitude":"-73.9898278386809"},{"address":"303 West 42nd Street","tamuAddress":"303 W 42ND ST New York NY ","latitude":"40.7573472021927","longitude":"-73.9898278386809"},{"address":"133 West 46th Street","tamuAddress":"133 W 46TH ST New York NY ","latitude":"40.7578644754971","longitude":"-73.9831494978391"},{"address":"133 West 46th Street","tamuAddress":"133 W 46TH ST New York NY ","latitude":"40.7578644754971","longitude":"-73.9831494978391"},{"address":"133 West 46th Street","tamuAddress":"133 W 46TH ST New York NY ","latitude":"40.7578644754971","longitude":"-73.9831494978391"},{"address":"133 West 46th Street","tamuAddress":"133 W 46TH ST New York NY ","latitude":"40.7578644754971","longitude":"-73.9831494978391"},{"address":"133 West 46th Street","tamuAddress":"133 W 46TH ST New York NY ","latitude":"40.7578644754971","longitude":"-73.9831494978391"},{"address":"441 West 26th Street","tamuAddress":"441 W 26TH ST New York NY ","latitude":"40.7491018941578","longitude":"-74.001388696334"},{"address":"446 West 33rd Street","tamuAddress":"446 W 33RD ST New York NY ","latitude":"40.7534748563734","longitude":"-73.9988113218168"},{"address":"252 West 46th Street","tamuAddress":"252 W 46TH ST New York NY ","latitude":"40.7591895426735","longitude":"-73.9867385774772"},{"address":"252 West 46th Street","tamuAddress":"252 W 46TH ST New York NY ","latitude":"40.7591895426735","longitude":"-73.9867385774772"},{"address":"252 West 46th Street","tamuAddress":"252 W 46TH ST New York NY ","latitude":"40.7591895426735","longitude":"-73.9867385774772"},{"address":"252 West 46th Street","tamuAddress":"252 W 46TH ST New York NY ","latitude":"40.7591895426735","longitude":"-73.9867385774772"},{"address":"252 West 46th Street","tamuAddress":"252 W 46TH ST New York NY ","latitude":"40.7591895426735","longitude":"-73.9867385774772"},{"address":"252 West 46th Street","tamuAddress":"252 W 46TH ST New York NY ","latitude":"40.7591895426735","longitude":"-73.9867385774772"},{"address":"252 West 46th Street","tamuAddress":"252 W 46TH ST New York NY ","latitude":"40.7591895426735","longitude":"-73.9867385774772"},{"address":"252 West 46th Street","tamuAddress":"252 W 46TH ST New York NY ","latitude":"40.7591895426735","longitude":"-73.9867385774772"},{"address":"252 West 46th Street","tamuAddress":"252 W 46TH ST New York NY ","latitude":"40.7591895426735","longitude":"-73.9867385774772"},{"address":"252 West 46th Street","tamuAddress":"252 W 46TH ST New York NY ","latitude":"40.7591895426735","longitude":"-73.9867385774772"},{"address":"252 West 46th Street","tamuAddress":"252 W 46TH ST New York NY ","latitude":"40.7591895426735","longitude":"-73.9867385774772"},{"address":"252 West 46th Street","tamuAddress":"252 W 46TH ST New York NY ","latitude":"40.7591895426735","longitude":"-73.9867385774772"},{"address":"252 West 46th Street","tamuAddress":"252 W 46TH ST New York NY ","latitude":"40.7591895426735","longitude":"-73.9867385774772"},{"address":"252 West 46th Street","tamuAddress":"252 W 46TH ST New York NY ","latitude":"40.7591895426735","longitude":"-73.9867385774772"},{"address":"339 West 47th Street","tamuAddress":"339 W 47TH ST New York NY ","latitude":"40.7609549990382","longitude":"-73.9885447699323"},{"address":"303 West 42nd St","tamuAddress":"303 W 42ND ST New York NY ","latitude":"40.7573472021927","longitude":"-73.9898278386809"},{"address":"303 West 42nd St","tamuAddress":"303 W 42ND ST New York NY ","latitude":"40.7573472021927","longitude":"-73.9898278386809"},{"address":"303 West 42nd St","tamuAddress":"303 W 42ND ST New York NY ","latitude":"40.7573472021927","longitude":"-73.9898278386809"},{"address":"303 West 42nd St","tamuAddress":"303 W 42ND ST New York NY ","latitude":"40.7573472021927","longitude":"-73.9898278386809"},{"address":"303 West 42nd St","tamuAddress":"303 W 42ND ST New York NY ","latitude":"40.7573472021927","longitude":"-73.9898278386809"},{"address":"303 West 42nd St","tamuAddress":"303 W 42ND ST New York NY ","latitude":"40.7573472021927","longitude":"-73.9898278386809"},{"address":"139 West 31st Street","tamuAddress":"139 W 31ST ST New York NY ","latitude":"40.7484468866129","longitude":"-73.9902352468194"},{"address":"139 West 31st Street","tamuAddress":"139 W 31ST ST New York NY ","latitude":"40.7484468866129","longitude":"-73.9902352468194"},{"address":"139 West 31st Street","tamuAddress":"139 W 31ST ST New York NY ","latitude":"40.7484468866129","longitude":"-73.9902352468194"},{"address":"422 West 57th Street","tamuAddress":"422 W 57TH ST New York NY ","latitude":"40.7681070513278","longitude":"-73.9863970797226"},{"address":"422 West 57th Street","tamuAddress":"422 W 57TH ST New York NY ","latitude":"40.7681070513278","longitude":"-73.9863970797226"},{"address":"211 West 30th Street","tamuAddress":"211 W 30TH ST New York NY ","latitude":"40.7486793956479","longitude":"-73.9927286472649"},{"address":"211 West 30th Street","tamuAddress":"211 W 30TH ST New York NY ","latitude":"40.7486793956479","longitude":"-73.9927286472649"},{"address":"252 West 46th Street","tamuAddress":"252 W 46TH ST New York NY ","latitude":"40.7591895426735","longitude":"-73.9867385774772"},{"address":"1 West 53rd Street","tamuAddress":"1 W 53RD ST New York NY ","latitude":"40.7605078757684","longitude":"-73.9758124645304"},{"address":"422 West 57th Street","tamuAddress":"422 W 57TH ST New York NY ","latitude":"40.7681070513278","longitude":"-73.9863970797226"},{"address":"422 West 57th Street","tamuAddress":"422 W 57TH ST New York NY ","latitude":"40.7681070513278","longitude":"-73.9863970797226"},{"address":"422 West 57th Street","tamuAddress":"422 W 57TH ST New York NY ","latitude":"40.7681070513278","longitude":"-73.9863970797226"},{"address":"422 West 57th Street","tamuAddress":"422 W 57TH ST New York NY ","latitude":"40.7681070513278","longitude":"-73.9863970797226"},{"address":"422 West 57th Street","tamuAddress":"422 W 57TH ST New York NY ","latitude":"40.7681070513278","longitude":"-73.9863970797226"},{"address":"422 West 57th Street","tamuAddress":"422 W 57TH ST New York NY ","latitude":"40.7681070513278","longitude":"-73.9863970797226"},{"address":"422 West 57th Street","tamuAddress":"422 W 57TH ST New York NY ","latitude":"40.7681070513278","longitude":"-73.9863970797226"},{"address":"422 West 57th Street","tamuAddress":"422 W 57TH ST New York NY ","latitude":"40.7681070513278","longitude":"-73.9863970797226"},{"address":"422 West 57th Street","tamuAddress":"422 W 57TH ST New York NY ","latitude":"40.7681070513278","longitude":"-73.9863970797226"},{"address":"422 West 57th Street","tamuAddress":"422 W 57TH ST New York NY ","latitude":"40.7681070513278","longitude":"-73.9863970797226"},{"address":"7 West 55th Street","tamuAddress":"7 W 55TH ST New York NY ","latitude":"40.7618390938974","longitude":"-73.975091742462"},{"address":"7 West 55th Street","tamuAddress":"7 W 55TH ST New York NY ","latitude":"40.7618390938974","longitude":"-73.975091742462"},{"address":"7 West 55th Street","tamuAddress":"7 W 55TH ST New York NY ","latitude":"40.7618390938974","longitude":"-73.975091742462"},{"address":"7 West 55th Street","tamuAddress":"7 W 55TH ST New York NY ","latitude":"40.7618390938974","longitude":"-73.975091742462"},{"address":"7 West 55th Street","tamuAddress":"7 W 55TH ST New York NY ","latitude":"40.7618390938974","longitude":"-73.975091742462"},{"address":"7 West 55th Street","tamuAddress":"7 W 55TH ST New York NY ","latitude":"40.7618390938974","longitude":"-73.975091742462"},{"address":"7 West 55th Street","tamuAddress":"7 W 55TH ST New York NY ","latitude":"40.7618390938974","longitude":"-73.975091742462"},{"address":"7 West 55th Street","tamuAddress":"7 W 55TH ST New York NY ","latitude":"40.7618390938974","longitude":"-73.975091742462"},{"address":"7 West 55th Street","tamuAddress":"7 W 55TH ST New York NY ","latitude":"40.7618390938974","longitude":"-73.975091742462"},{"address":"7 West 55th Street","tamuAddress":"7 W 55TH ST New York NY ","latitude":"40.7618390938974","longitude":"-73.975091742462"},{"address":"252 West 46th Street","tamuAddress":"252 W 46TH ST New York NY ","latitude":"40.7591895426735","longitude":"-73.9867385774772"},{"address":"252 West 46th Street","tamuAddress":"252 W 46TH ST New York NY ","latitude":"40.7591895426735","longitude":"-73.9867385774772"},{"address":"252 West 46th Street","tamuAddress":"252 W 46TH ST New York NY ","latitude":"40.7591895426735","longitude":"-73.9867385774772"},{"address":"252 West 46th Street","tamuAddress":"252 W 46TH ST New York NY ","latitude":"40.7591895426735","longitude":"-73.9867385774772"},{"address":"252 West 46th Street","tamuAddress":"252 W 46TH ST New York NY ","latitude":"40.7591895426735","longitude":"-73.9867385774772"},{"address":"252 West 46th Street","tamuAddress":"252 W 46TH ST New York NY ","latitude":"40.7591895426735","longitude":"-73.9867385774772"},{"address":"252 West 46th Street","tamuAddress":"252 W 46TH ST New York NY ","latitude":"40.7591895426735","longitude":"-73.9867385774772"},{"address":"729 7th Avenue","tamuAddress":"729 7TH AVE New York NY ","latitude":"40.760037679013","longitude":"-73.9839212337742"},{"address":"538 West 47th Street","tamuAddress":"538 W 47TH ST New York NY ","latitude":"40.763245485234","longitude":"-73.9944361996955"},{"address":"538 West 47th Street","tamuAddress":"538 W 47TH ST New York NY ","latitude":"40.763245485234","longitude":"-73.9944361996955"},{"address":"538 West 47th Street","tamuAddress":"538 W 47TH ST New York NY ","latitude":"40.763245485234","longitude":"-73.9944361996955"},{"address":"1000 Tenth Avenue","tamuAddress":"1000 TENTH AVE New York NY ","latitude":"40.7700536177104","longitude":"-73.9877635987168"},{"address":"1000 Tenth Avenue","tamuAddress":"1000 TENTH AVE New York NY ","latitude":"40.7700536177104","longitude":"-73.9877635987168"},{"address":"303 West 42nd Street","tamuAddress":"303 W 42ND ST New York NY ","latitude":"40.7573472021927","longitude":"-73.9898278386809"},{"address":"252 West 46th Street","tamuAddress":"252 W 46TH ST New York NY ","latitude":"40.7591895426735","longitude":"-73.9867385774772"},{"address":"307 West 26th Street","tamuAddress":"307 W 26TH ST New York NY ","latitude":"40.7473708388913","longitude":"-73.9972612945271"},{"address":"307 West 26th Street","tamuAddress":"307 W 26TH ST New York NY ","latitude":"40.7473708388913","longitude":"-73.9972612945271"},{"address":"307 West 26th Street","tamuAddress":"307 W 26TH ST New York NY ","latitude":"40.7473708388913","longitude":"-73.9972612945271"},{"address":"307 West 26th Street","tamuAddress":"307 W 26TH ST New York NY ","latitude":"40.7473708388913","longitude":"-73.9972612945271"},{"address":"307 West 26th Street","tamuAddress":"307 W 26TH ST New York NY ","latitude":"40.7473708388913","longitude":"-73.9972612945271"},{"address":"405 West 59th Street","tamuAddress":"405 W 59TH ST New York NY ","latitude":"40.7697787078634","longitude":"-73.9858686267659"},{"address":"303 West 42nd Street","tamuAddress":"303 W 42ND ST New York NY ","latitude":"40.7573472021927","longitude":"-73.9898278386809"},{"address":"303 West 42nd Street","tamuAddress":"303 W 42ND ST New York NY ","latitude":"40.7573472021927","longitude":"-73.9898278386809"},{"address":"303 West 42nd Street","tamuAddress":"303 W 42ND ST New York NY ","latitude":"40.7573472021927","longitude":"-73.9898278386809"},{"address":"303 West 42nd Street","tamuAddress":"303 W 42ND ST New York NY ","latitude":"40.7573472021927","longitude":"-73.9898278386809"},{"address":"303 West 42nd Street","tamuAddress":"303 W 42ND ST New York NY ","latitude":"40.7573472021927","longitude":"-73.9898278386809"},{"address":"303 West 42nd Street","tamuAddress":"303 W 42ND ST New York NY ","latitude":"40.7573472021927","longitude":"-73.9898278386809"},{"address":"303 West 42nd Street","tamuAddress":"303 W 42ND ST New York NY ","latitude":"40.7573472021927","longitude":"-73.9898278386809"},{"address":"422 West 57th St","tamuAddress":"422 W 57TH ST New York NY ","latitude":"40.7681070513278","longitude":"-73.9863970797226"},{"address":"133 West 46th Street","tamuAddress":"133 W 46TH ST New York NY ","latitude":"40.7578644754971","longitude":"-73.9831494978391"},{"address":"133 West 46th Street","tamuAddress":"133 W 46TH ST New York NY ","latitude":"40.7578644754971","longitude":"-73.9831494978391"},{"address":"133 West 46th Street","tamuAddress":"133 W 46TH ST New York NY ","latitude":"40.7578644754971","longitude":"-73.9831494978391"},{"address":"133 West 46th Street","tamuAddress":"133 W 46TH ST New York NY ","latitude":"40.7578644754971","longitude":"-73.9831494978391"},{"address":"133 West 46th Street","tamuAddress":"133 W 46TH ST New York NY ","latitude":"40.7578644754971","longitude":"-73.9831494978391"},{"address":"133 West 46th Street","tamuAddress":"133 W 46TH ST New York NY ","latitude":"40.7578644754971","longitude":"-73.9831494978391"},{"address":"133 West 46th Street","tamuAddress":"133 W 46TH ST New York NY ","latitude":"40.7578644754971","longitude":"-73.9831494978391"},{"address":"133 West 46th Street","tamuAddress":"133 W 46TH ST New York NY ","latitude":"40.7578644754971","longitude":"-73.9831494978391"},{"address":"133 West 46th Street","tamuAddress":"133 W 46TH ST New York NY ","latitude":"40.7578644754971","longitude":"-73.9831494978391"},{"address":"133 West 46th Street","tamuAddress":"133 W 46TH ST New York NY ","latitude":"40.7578644754971","longitude":"-73.9831494978391"},{"address":"133 West 46th Street","tamuAddress":"133 W 46TH ST New York NY ","latitude":"40.7578644754971","longitude":"-73.9831494978391"},{"address":"133 West 46th Street","tamuAddress":"133 W 46TH ST New York NY ","latitude":"40.7578644754971","longitude":"-73.9831494978391"},{"address":"133 West 46th Street","tamuAddress":"133 W 46TH ST New York NY ","latitude":"40.7578644754971","longitude":"-73.9831494978391"},{"address":"133 West 46th Street","tamuAddress":"133 W 46TH ST New York NY ","latitude":"40.7578644754971","longitude":"-73.9831494978391"},{"address":"133 West 46th Street","tamuAddress":"133 W 46TH ST New York NY ","latitude":"40.7578644754971","longitude":"-73.9831494978391"},{"address":"133 West 46th Street","tamuAddress":"133 W 46TH ST New York NY ","latitude":"40.7578644754971","longitude":"-73.9831494978391"},{"address":"133 West 46th Street","tamuAddress":"133 W 46TH ST New York NY ","latitude":"40.7578644754971","longitude":"-73.9831494978391"},{"address":"133 West 46th Street","tamuAddress":"133 W 46TH ST New York NY ","latitude":"40.7578644754971","longitude":"-73.9831494978391"},{"address":"133 West 46th Street","tamuAddress":"133 W 46TH ST New York NY ","latitude":"40.7578644754971","longitude":"-73.9831494978391"},{"address":"133 West 46th Street","tamuAddress":"133 W 46TH ST New York NY ","latitude":"40.7578644754971","longitude":"-73.9831494978391"},{"address":"133 West 46th Street","tamuAddress":"133 W 46TH ST New York NY ","latitude":"40.7578644754971","longitude":"-73.9831494978391"},{"address":"133 West 46th Street","tamuAddress":"133 W 46TH ST New York NY ","latitude":"40.7578644754971","longitude":"-73.9831494978391"},{"address":"133 West 46th Street","tamuAddress":"133 W 46TH ST New York NY ","latitude":"40.7578644754971","longitude":"-73.9831494978391"},{"address":"133 West 46th Street","tamuAddress":"133 W 46TH ST New York NY ","latitude":"40.7578644754971","longitude":"-73.9831494978391"},{"address":"303 West 42nd Street","tamuAddress":"303 W 42ND ST New York NY ","latitude":"40.7573472021927","longitude":"-73.9898278386809"},{"address":"303 West 42nd Street","tamuAddress":"303 W 42ND ST New York NY ","latitude":"40.7573472021927","longitude":"-73.9898278386809"},{"address":"303 West 42nd Street","tamuAddress":"303 W 42ND ST New York NY ","latitude":"40.7573472021927","longitude":"-73.9898278386809"},{"address":"303 West 42nd Street","tamuAddress":"303 W 42ND ST New York NY ","latitude":"40.7573472021927","longitude":"-73.9898278386809"},{"address":"303 West 42nd Street","tamuAddress":"303 W 42ND ST New York NY ","latitude":"40.7573472021927","longitude":"-73.9898278386809"},{"address":"303 West 42nd Street","tamuAddress":"303 W 42ND ST New York NY ","latitude":"40.7573472021927","longitude":"-73.9898278386809"},{"address":"303 West 42nd Street","tamuAddress":"303 W 42ND ST New York NY ","latitude":"40.7573472021927","longitude":"-73.9898278386809"},{"address":"296 9th Avenue","tamuAddress":"296 9TH AVE New York NY ","latitude":"40.7493642017494","longitude":"-73.9991233310954"},{"address":"296 9th Avenue","tamuAddress":"296 9TH AVE New York NY ","latitude":"40.8228042471098","longitude":"-73.8091987304391"},{"address":"296 9th Avenue","tamuAddress":"296 9TH AVE New York NY ","latitude":"40.8228042471098","longitude":"-73.8091987304391"},{"address":"296 9th Avenue","tamuAddress":"296 9TH AVE New York NY ","latitude":"40.7493642017494","longitude":"-73.9991233310954"},{"address":"296 9th Avenue","tamuAddress":"296 9TH AVE New York NY ","latitude":"40.8228042471098","longitude":"-73.8091987304391"},{"address":"296 9th Avenue","tamuAddress":"296 9TH AVE New York NY ","latitude":"40.7493642017494","longitude":"-73.9991233310954"},{"address":"139 West 31st Street","tamuAddress":"139 W 31ST ST New York NY ","latitude":"40.7484468866129","longitude":"-73.9902352468194"},{"address":"139 West 31st Street","tamuAddress":"139 W 31ST ST New York NY ","latitude":"40.7484468866129","longitude":"-73.9902352468194"},{"address":"139 West 31st Street","tamuAddress":"139 W 31ST ST New York NY ","latitude":"40.7484468866129","longitude":"-73.9902352468194"},{"address":"1 West 53rd Street","tamuAddress":"1 W 53RD ST New York NY ","latitude":"40.7605078757684","longitude":"-73.9758124645304"},{"address":"484 West 43rd Street","tamuAddress":"484 W 43RD ST New York NY ","latitude":"40.7600416876915","longitude":"-73.9946015443691"},{"address":"484 West 43rd Street","tamuAddress":"484 W 43RD ST New York NY ","latitude":"40.7600416876915","longitude":"-73.9946015443691"},{"address":"484 West 43rd Street","tamuAddress":"484 W 43RD ST New York NY ","latitude":"40.7600416876915","longitude":"-73.9946015443691"},{"address":"484 West 43rd Street","tamuAddress":"484 W 43RD ST New York NY ","latitude":"40.7600416876915","longitude":"-73.9946015443691"},{"address":"484 West 43rd Street","tamuAddress":"484 W 43RD ST New York NY ","latitude":"40.7600416876915","longitude":"-73.9946015443691"},{"address":"7 West 55th Street","tamuAddress":"7 W 55TH ST New York NY ","latitude":"40.7618390938974","longitude":"-73.975091742462"},{"address":"252 West 46th Street","tamuAddress":"252 W 46TH ST New York NY ","latitude":"40.7591895426735","longitude":"-73.9867385774772"},{"address":"252 West 46th Street","tamuAddress":"252 W 46TH ST New York NY ","latitude":"40.7591895426735","longitude":"-73.9867385774772"},{"address":"252 West 46th Street","tamuAddress":"252 W 46TH ST New York NY ","latitude":"40.7591895426735","longitude":"-73.9867385774772"},{"address":"252 West 46th Street","tamuAddress":"252 W 46TH ST New York NY ","latitude":"40.7591895426735","longitude":"-73.9867385774772"},{"address":"252 West 46th Street","tamuAddress":"252 W 46TH ST New York NY ","latitude":"40.7591895426735","longitude":"-73.9867385774772"},{"address":"252 West 46th Street","tamuAddress":"252 W 46TH ST New York NY ","latitude":"40.7591895426735","longitude":"-73.9867385774772"},{"address":"252 West 46th Street","tamuAddress":"252 W 46TH ST New York NY ","latitude":"40.7591895426735","longitude":"-73.9867385774772"},{"address":"252 West 46th Street","tamuAddress":"252 W 46TH ST New York NY ","latitude":"40.7591895426735","longitude":"-73.9867385774772"},{"address":"252 West 46th Street","tamuAddress":"252 W 46TH ST New York NY ","latitude":"40.7591895426735","longitude":"-73.9867385774772"},{"address":"252 West 46th Street","tamuAddress":"252 W 46TH ST New York NY ","latitude":"40.7591895426735","longitude":"-73.9867385774772"},{"address":"252 West 46th Street","tamuAddress":"252 W 46TH ST New York NY ","latitude":"40.7591895426735","longitude":"-73.9867385774772"},{"address":"252 West 46th Street","tamuAddress":"252 W 46TH ST New York NY ","latitude":"40.7591895426735","longitude":"-73.9867385774772"},{"address":"252 West 46th Street","tamuAddress":"252 W 46TH ST New York NY ","latitude":"40.7591895426735","longitude":"-73.9867385774772"},{"address":"252 West 46th Street","tamuAddress":"252 W 46TH ST New York NY ","latitude":"40.7591895426735","longitude":"-73.9867385774772"},{"address":"252 West 46th Street","tamuAddress":"252 W 46TH ST New York NY ","latitude":"40.7591895426735","longitude":"-73.9867385774772"},{"address":"252 West 46th Street","tamuAddress":"252 W 46TH ST New York NY ","latitude":"40.7591895426735","longitude":"-73.9867385774772"},{"address":"252 West 46th Street","tamuAddress":"252 W 46TH ST New York NY ","latitude":"40.7591895426735","longitude":"-73.9867385774772"},{"address":"252 West 46th Street","tamuAddress":"252 W 46TH ST New York NY ","latitude":"40.7591895426735","longitude":"-73.9867385774772"},{"address":"252 West 46th Street","tamuAddress":"252 W 46TH ST New York NY ","latitude":"40.7591895426735","longitude":"-73.9867385774772"},{"address":"252 West 46th Street","tamuAddress":"252 W 46TH ST New York NY ","latitude":"40.7591895426735","longitude":"-73.9867385774772"},{"address":"252 West 46th Street","tamuAddress":"252 W 46TH ST New York NY ","latitude":"40.7591895426735","longitude":"-73.9867385774772"},{"address":"252 West 46th Street","tamuAddress":"252 W 46TH ST New York NY ","latitude":"40.7591895426735","longitude":"-73.9867385774772"},{"address":"4 West 43rd Street","tamuAddress":"4 W 43RD ST New York NY ","latitude":"40.7541070968091","longitude":"-73.9805131973307"},{"address":"4 West 43rd Street","tamuAddress":"4 W 43RD ST New York NY ","latitude":"40.7541070968091","longitude":"-73.9805131973307"},{"address":"4 West 43rd Street","tamuAddress":"4 W 43RD ST New York NY ","latitude":"40.7541070968091","longitude":"-73.9805131973307"},{"address":"4 West 43rd Street","tamuAddress":"4 W 43RD ST New York NY ","latitude":"40.7541070968091","longitude":"-73.9805131973307"},{"address":"4 West 43rd Street","tamuAddress":"4 W 43RD ST New York NY ","latitude":"40.7541070968091","longitude":"-73.9805131973307"},{"address":"252 West 46th Street","tamuAddress":"252 W 46TH ST New York NY ","latitude":"40.7591895426735","longitude":"-73.9867385774772"},{"address":"296 Ninth Avenue","tamuAddress":"296 NINTH AVE New York NY ","latitude":"40.7493642017494","longitude":"-73.9991233310954"},{"address":"1 West 53rd Street","tamuAddress":"1 W 53RD ST New York NY ","latitude":"40.7605078757684","longitude":"-73.9758124645304"},{"address":"210 West 31st Street","tamuAddress":"210 W 31ST ST New York NY ","latitude":"40.7491443998598","longitude":"-73.9923418714109"},{"address":"210 West 31st Street","tamuAddress":"210 W 31ST ST New York NY ","latitude":"40.7491443998598","longitude":"-73.9923418714109"},{"address":"422 West 57th Street","tamuAddress":"422 W 57TH ST New York NY ","latitude":"40.7681070513278","longitude":"-73.9863970797226"},{"address":"252 West 46th Street","tamuAddress":"252 W 46TH ST New York NY ","latitude":"40.7591895426735","longitude":"-73.9867385774772"},{"address":"134 West 29th Street","tamuAddress":"134 W 29TH ST New York NY ","latitude":"40.7469927833142","longitude":"-73.9910926609818"},{"address":"1000 Tenth Avenue","tamuAddress":"1000 TENTH AVE New York NY ","latitude":"40.7700536177104","longitude":"-73.9877635987168"},{"address":"446 West 33rd Street","tamuAddress":"446 W 33RD ST New York NY ","latitude":"40.7534748563734","longitude":"-73.9988113218168"},{"address":"423 West 46th Street","tamuAddress":"423 W 46TH ST New York NY ","latitude":"40.7614822876876","longitude":"-73.9917070561952"},{"address":"252 West 46th Street","tamuAddress":"252 W 46TH ST New York NY ","latitude":"40.7591895426735","longitude":"-73.9867385774772"}]