[{"location":"Columbia Presbyterian Hospital","meetingName":"A NEW WAY OF LIVING - A New Way Of Living","address":"701 West 168th Street","tamuAddress":"701 W 168TH ST New York NY ","latitude":"40.8417041867874","longitude":"-73.9409996840446","addressFull":"701 West 168th Street @ Fort Washington Avenue Hammer Health & Science Library NY 10032","meetingDetails":"Check with Security for Room # T Last Thu  Living Sober & Anniv Last Fri. No meetings on public holidays","wheelChair":"False","day":"Wednesdays","start_time":"12:00 PM","end_time":"1:00 PM","type":"Closed Discussion","specialInterest":""},{"location":"Columbia Presbyterian Hospital","meetingName":"A NEW WAY OF LIVING - A New Way Of Living","address":"701 West 168th Street","tamuAddress":"701 W 168TH ST New York NY ","latitude":"40.8417041867874","longitude":"-73.9409996840446","addressFull":"701 West 168th Street @ Fort Washington Avenue Hammer Health & Science Library NY 10032","meetingDetails":"Check with Security for Room # T Last Thu  Living Sober & Anniv Last Fri. No meetings on public holidays","wheelChair":"False","day":"Wednesdays","start_time":"12:00 PM","end_time":"1:00 PM","type":"Closed Discussion","specialInterest":""},{"location":"Columbia Presbyterian Hospital","meetingName":"A NEW WAY OF LIVING - A New Way Of Living","address":"701 West 168th Street","tamuAddress":"701 W 168TH ST New York NY ","latitude":"40.8417041867874","longitude":"-73.9409996840446","addressFull":"701 West 168th Street @ Fort Washington Avenue Hammer Health & Science Library NY 10032","meetingDetails":"Check with Security for Room # T Last Thu  Living Sober & Anniv Last Fri. No meetings on public holidays","wheelChair":"False","day":"Wednesdays","start_time":"12:00 PM","end_time":"1:00 PM","type":"Closed Discussion","specialInterest":""},{"location":"Columbia Presbyterian Hospital","meetingName":"A NEW WAY OF LIVING - A New Way Of Living","address":"701 West 168th Street","tamuAddress":"701 W 168TH ST New York NY ","latitude":"40.8417041867874","longitude":"-73.9409996840446","addressFull":"701 West 168th Street @ Fort Washington Avenue Hammer Health & Science Library NY 10032","meetingDetails":"Check with Security for Room # T Last Thu  Living Sober & Anniv Last Fri. No meetings on public holidays","wheelChair":"False","day":"Wednesdays","start_time":"12:00 PM","end_time":"1:00 PM","type":"Closed Discussion","specialInterest":""},{"location":"Columbia Presbyterian Hospital","meetingName":"A NEW WAY OF LIVING - A New Way Of Living","address":"701 West 168th Street","tamuAddress":"701 W 168TH ST New York NY ","latitude":"40.8417041867874","longitude":"-73.9409996840446","addressFull":"701 West 168th Street @ Fort Washington Avenue Hammer Health & Science Library NY 10032","meetingDetails":"Check with Security for Room # T Last Thu  Living Sober & Anniv Last Fri. No meetings on public holidays","wheelChair":"False","day":"Wednesdays","start_time":"12:00 PM","end_time":"1:00 PM","type":"Closed Discussion","specialInterest":""},{"location":"Holy Rood Church","meetingName":"WASHINGTON HEIGHTS                  (:I) - Washington Heights    (:I)","address":"715 West 179th Street","tamuAddress":"715 W 179TH ST New York NY ","latitude":"40.8490796467369","longitude":"-73.9373313893221","addressFull":"715 West 179th Street @ Fort Washington NY 10033","meetingDetails":"","wheelChair":"False","day":"Tuesdays","start_time":"7:30 PM","end_time":"8:30 PM","type":"Open","specialInterest":""},{"location":"Holy Rood Church","meetingName":"WASHINGTON HEIGHTS                  (:I) - Washington Heights    (:I)","address":"715 West 179th Street","tamuAddress":"715 W 179TH ST New York NY ","latitude":"40.8490796467369","longitude":"-73.9373313893221","addressFull":"715 West 179th Street @ Fort Washington NY 10033","meetingDetails":"","wheelChair":"False","day":"Tuesdays","start_time":"7:30 PM","end_time":"8:30 PM","type":"Open","specialInterest":""},{"location":"Holy Rood Church","meetingName":"WASHINGTON HEIGHTS                  (:I) - Washington Heights    (:I)","address":"715 West 179th Street","tamuAddress":"715 W 179TH ST New York NY ","latitude":"40.8490796467369","longitude":"-73.9373313893221","addressFull":"715 West 179th Street @ Fort Washington NY 10033","meetingDetails":"","wheelChair":"False","day":"Tuesdays","start_time":"7:30 PM","end_time":"8:30 PM","type":"Open","specialInterest":""},{"location":"Holy Rood Church","meetingName":"WASHINGTON HEIGHTS                  (:I) - Washington Heights    (:I)","address":"715 West 179th Street","tamuAddress":"715 W 179TH ST New York NY ","latitude":"40.8490796467369","longitude":"-73.9373313893221","addressFull":"715 West 179th Street @ Fort Washington NY 10033","meetingDetails":"","wheelChair":"False","day":"Tuesdays","start_time":"7:30 PM","end_time":"8:30 PM","type":"Open","specialInterest":""},{"location":"Holy Rood Church","meetingName":"WASHINGTON HEIGHTS                  (:I) - Washington Heights    (:I)","address":"715 West 179th Street","tamuAddress":"715 W 179TH ST New York NY ","latitude":"40.8490796467369","longitude":"-73.9373313893221","addressFull":"715 West 179th Street @ Fort Washington NY 10033","meetingDetails":"","wheelChair":"False","day":"Tuesdays","start_time":"7:30 PM","end_time":"8:30 PM","type":"Open","specialInterest":""},{"location":"Holy Rood Church","meetingName":"WASHINGTON HEIGHTS                  (:I) - Washington Heights    (:I)","address":"715 West 179th Street","tamuAddress":"715 W 179TH ST New York NY ","latitude":"40.8490796467369","longitude":"-73.9373313893221","addressFull":"715 West 179th Street @ Fort Washington NY 10033","meetingDetails":"","wheelChair":"False","day":"Tuesdays","start_time":"7:30 PM","end_time":"8:30 PM","type":"Open","specialInterest":""},{"location":"St. Judes School","meetingName":"DYCKMAN - Dyckman","address":"431 West 204th Street","tamuAddress":"431 W 204TH ST New York NY ","latitude":"40.8620966104922","longitude":"-73.9190004613749","addressFull":"431 West 204th Street  Basement (Off of 10th Avenue) NY 10034","meetingDetails":"BB 1st & T Last Wed.","wheelChair":"False","day":"Wednesdays","start_time":"7:00 PM","end_time":"8:00 PM","type":"Step","specialInterest":""},{"location":"St. Judes School","meetingName":"DYCKMAN - Dyckman","address":"431 West 204th Street","tamuAddress":"431 W 204TH ST New York NY ","latitude":"40.8620966104922","longitude":"-73.9190004613749","addressFull":"431 West 204th Street  Basement (Off of 10th Avenue) NY 10034","meetingDetails":"BB 1st & T Last Wed.","wheelChair":"False","day":"Wednesdays","start_time":"7:00 PM","end_time":"8:00 PM","type":"Step","specialInterest":""},{"location":"Church of the Intercession","meetingName":"FOUND-A-WAY - Found-A-Way","address":"550 West 155th Street","tamuAddress":"550 W 155TH ST New York NY ","latitude":"40.8320961144213","longitude":"-73.944465684352","addressFull":"550 West 155th Street  2nd Floor Guild Room (Betw Amsterdam Avenue & Bway) NY 10032","meetingDetails":"Mens meeting & Gay mens focus. All are welcome. Anniversary last Sat.  1st Sat.=S followed by Bus. Mtg.","wheelChair":"False","day":"Saturdays","start_time":"12:30 PM","end_time":"2:00 PM","type":"Closed Discussion","specialInterest":"Gay Men"},{"location":"Casita Esperanza","meetingName":"GRUPO DESPERTAR - Grupo Despertar","address":"557 West 156th Street","tamuAddress":"557 W 156TH ST New York NY ","latitude":"40.8330065334804","longitude":"-73.9440819529521","addressFull":"557 West 156th Street NY 10032","meetingDetails":"Spanish Speaking Meetings.","wheelChair":"False","day":"Fridays","start_time":"8:00 PM","end_time":"10:00 PM","type":"Open Discussion","specialInterest":""},{"location":"Casita Esperanza","meetingName":"GRUPO DESPERTAR - Grupo Despertar","address":"557 West 156th Street","tamuAddress":"557 W 156TH ST New York NY ","latitude":"40.8330065334804","longitude":"-73.9440819529521","addressFull":"557 West 156th Street NY 10032","meetingDetails":"Spanish Speaking Meetings.","wheelChair":"False","day":"Fridays","start_time":"8:00 PM","end_time":"10:00 PM","type":"Open Discussion","specialInterest":""},{"location":"","meetingName":"GRUPO LA FLAMA PANAMERICANA - Grupo La Flama Panamericana","address":"35 Thayer Street","tamuAddress":"35 THAYER ST New York NY ","latitude":"40.8626","longitude":"-73.9264","addressFull":"35 Thayer Street  Basement (@ 200th Street  behind Dyckman Avenue ) NY 10040","meetingDetails":"Spanish speaking meetings.","wheelChair":"False","day":"Saturdays","start_time":"8:00 PM","end_time":"10:00 PM","type":"Open","specialInterest":""},{"location":"","meetingName":"GRUPO LA FLAMA PANAMERICANA - Grupo La Flama Panamericana","address":"35 Thayer Street","tamuAddress":"35 THAYER ST New York NY ","latitude":"40.8626229492642","longitude":"-73.9263833803336","addressFull":"35 Thayer Street  Basement (@ 200th Street  behind Dyckman Avenue ) NY 10040","meetingDetails":"Spanish speaking meetings.","wheelChair":"False","day":"Saturdays","start_time":"8:00 PM","end_time":"10:00 PM","type":"Open","specialInterest":""},{"location":"","meetingName":"GRUPO LA FLAMA PANAMERICANA - Grupo La Flama Panamericana","address":"35 Thayer Street","tamuAddress":"35 THAYER ST New York NY ","latitude":"40.8626","longitude":"-73.9264","addressFull":"35 Thayer Street  Basement (@ 200th Street  behind Dyckman Avenue ) NY 10040","meetingDetails":"Spanish speaking meetings.","wheelChair":"False","day":"Saturdays","start_time":"8:00 PM","end_time":"10:00 PM","type":"Open","specialInterest":""},{"location":"","meetingName":"GRUPO LA FLAMA PANAMERICANA - Grupo La Flama Panamericana","address":"35 Thayer Street","tamuAddress":"35 THAYER ST New York NY ","latitude":"40.8626","longitude":"-73.9264","addressFull":"35 Thayer Street  Basement (@ 200th Street  behind Dyckman Avenue ) NY 10040","meetingDetails":"Spanish speaking meetings.","wheelChair":"False","day":"Saturdays","start_time":"8:00 PM","end_time":"10:00 PM","type":"Open","specialInterest":""},{"location":"Holy Rood Church","meetingName":"WASHINGTON HEIGHTS                  (:I) - Washington Heights    (:I)","address":"715 West 179th Street","tamuAddress":"715 W 179TH ST New York NY ","latitude":"40.8490796467369","longitude":"-73.9373313893221","addressFull":"715 West 179th Street @ Fort Washington NY 10033","meetingDetails":"","wheelChair":"False","day":"Tuesdays","start_time":"7:30 PM","end_time":"8:30 PM","type":"Open","specialInterest":""},{"location":"Holy Rood Church","meetingName":"WASHINGTON HEIGHTS                  (:I) - Washington Heights    (:I)","address":"715 West 179th Street","tamuAddress":"715 W 179TH ST New York NY ","latitude":"40.8490796467369","longitude":"-73.9373313893221","addressFull":"715 West 179th Street @ Fort Washington NY 10033","meetingDetails":"","wheelChair":"False","day":"Tuesdays","start_time":"7:30 PM","end_time":"8:30 PM","type":"Open","specialInterest":""},{"location":"Holy Rood Church","meetingName":"WASHINGTON HEIGHTS                  (:I) - Washington Heights    (:I)","address":"715 West 179th Street","tamuAddress":"715 W 179TH ST New York NY ","latitude":"40.8490796467369","longitude":"-73.9373313893221","addressFull":"715 West 179th Street @ Fort Washington NY 10033","meetingDetails":"","wheelChair":"False","day":"Tuesdays","start_time":"7:30 PM","end_time":"8:30 PM","type":"Open","specialInterest":""},{"location":"Holy Rood Church","meetingName":"WASHINGTON HEIGHTS                  (:I) - Washington Heights    (:I)","address":"715 West 179th Street","tamuAddress":"715 W 179TH ST New York NY ","latitude":"40.8490796467369","longitude":"-73.9373313893221","addressFull":"715 West 179th Street @ Fort Washington NY 10033","meetingDetails":"","wheelChair":"False","day":"Tuesdays","start_time":"7:30 PM","end_time":"8:30 PM","type":"Open","specialInterest":""},{"location":"Church Santa Rosa de Lima","meetingName":"GRUPO RECUPERACION - Grupo Recuperacion","address":"502 West 165th Street","tamuAddress":"502 W 165TH ST New York NY ","latitude":"40.8378476619065","longitude":"-73.9384773058967","addressFull":"502 West165th Street  Basement (Betw. St. Nicholas & Amsterdam Avenues) NY 10032","meetingDetails":"Spanish speaking meetings.","wheelChair":"False","day":"Thursdays","start_time":"8:00 PM","end_time":"9:00 PM","type":"Open","specialInterest":""},{"location":"Church Santa Rosa de Lima","meetingName":"GRUPO RECUPERACION - Grupo Recuperacion","address":"502 West 165th Street","tamuAddress":"502 W 165TH ST New York NY ","latitude":"40.8378476619065","longitude":"-73.9384773058967","addressFull":"502 West165th Street  Basement (Betw. St. Nicholas & Amsterdam Avenues) NY 10032","meetingDetails":"Spanish speaking meetings.","wheelChair":"False","day":"Thursdays","start_time":"8:00 PM","end_time":"9:00 PM","type":"Open","specialInterest":""},{"location":"Church Santa Rosa de Lima","meetingName":"GRUPO RECUPERACION - Grupo Recuperacion","address":"502 West 165th Street","tamuAddress":"502 W 165TH ST New York NY ","latitude":"40.8378476619065","longitude":"-73.9384773058967","addressFull":"502 West165th Street  Basement (Betw. St. Nicholas & Amsterdam Avenues) NY 10032","meetingDetails":"Spanish speaking meetings.","wheelChair":"False","day":"Thursdays","start_time":"8:00 PM","end_time":"9:00 PM","type":"Open","specialInterest":""},{"location":"Our Lady Queen of Martyrs","meetingName":"UPPER MANHATTAN - Upper Manhattan","address":"91 Arden Street","tamuAddress":"91 ARDEN ST New York NY ","latitude":"40.8639155612836","longitude":"-73.9282546578791","addressFull":"91 Arden Street (2 blocks South of Dyckman Street  Betw. Broadway & Sherman Avenue) NY 10034","meetingDetails":"","wheelChair":"False","day":"Thursdays","start_time":"7:30 PM","end_time":"8:30 PM","type":"Open Discussion","specialInterest":""},{"location":"Our Lady Queen of Martyrs","meetingName":"UPPER MANHATTAN - Upper Manhattan","address":"91 Arden Street","tamuAddress":"91 ARDEN ST New York NY ","latitude":"40.8639155612836","longitude":"-73.9282546578791","addressFull":"91 Arden Street (2 blocks South of Dyckman Street  Betw. Broadway & Sherman Avenue) NY 10034","meetingDetails":"","wheelChair":"False","day":"Thursdays","start_time":"7:30 PM","end_time":"8:30 PM","type":"Open Discussion","specialInterest":""},{"location":"Holy Trinity Episcopal Church","meetingName":"HAPPY DESTINY -","address":"20 Cumming Street","tamuAddress":"20 CUMMING ST New York NY ","latitude":"40.8664805601797","longitude":"-73.9264534882199","addressFull":"20 Cumming Street @Seaman Ave. 10034","meetingDetails":"LGBT All welcome. Sun= As Bill See it; Wed=Steps1-3 Sun.meeting in Sanctuary; Wed meeting in Auditorium","wheelChair":"False","day":"Wednesdays","start_time":"7:30 PM","end_time":"8:30 PM","type":"Beginners","specialInterest":"Gay, Lesbian and Bisexual"},{"location":"Holy Trinity Episcopal Church","meetingName":"HAPPY DESTINY -","address":"20 Cumming Street","tamuAddress":"20 CUMMING ST New York NY ","latitude":"40.8664805601797","longitude":"-73.9264534882199","addressFull":"20 Cumming Street @Seaman Ave. 10034","meetingDetails":"LGBT All welcome. Sun= As Bill See it; Wed=Steps1-3 Sun.meeting in Sanctuary; Wed meeting in Auditorium","wheelChair":"False","day":"Wednesdays","start_time":"7:30 PM","end_time":"8:30 PM","type":"Beginners","specialInterest":"Gay, Lesbian and Bisexual"},{"location":"Mount Washington Presbyterian Church","meetingName":"INWOOD FORT TRYON - Inwood-Ft. Tryon","address":"84 Vermilyea Avenue","tamuAddress":"84 VERMILYEA AVE New York NY ","latitude":"40.866","longitude":"-73.9231","addressFull":"84 Vermilyea Avenue (@ 204th Street  1 Block East of Broadway) NY 10034","meetingDetails":"Sat. Closed meeting rotating step/speaker/trad/anniversary In Dec. first two weeks will be Step meeting","wheelChair":"False","day":"Tuesdays","start_time":"12:30 PM","end_time":"1:30 PM","type":"Closed Discussion","specialInterest":""},{"location":"Mount Washington Presbyterian Church","meetingName":"INWOOD FORT TRYON - Inwood-Ft. Tryon","address":"84 Vermilyea Avenue","tamuAddress":"84 VERMILYEA AVE New York NY ","latitude":"40.866","longitude":"-73.9231","addressFull":"84 Vermilyea Avenue (@ 204th Street  1 Block East of Broadway) NY 10034","meetingDetails":"Sat. Closed meeting rotating step/speaker/trad/anniversary In Dec. first two weeks will be Step meeting","wheelChair":"False","day":"Tuesdays","start_time":"12:30 PM","end_time":"1:30 PM","type":"Closed Discussion","specialInterest":""},{"location":"Mount Washington Presbyterian Church","meetingName":"INWOOD FORT TRYON - Inwood-Ft. Tryon","address":"84 Vermilyea Avenue","tamuAddress":"84 VERMILYEA AVE New York NY ","latitude":"40.8659683152661","longitude":"-73.923146151519","addressFull":"84 Vermilyea Avenue (@ 204th Street  1 Block East of Broadway) NY 10034","meetingDetails":"Sat. Closed meeting rotating step/speaker/trad/anniversary In Dec. first two weeks will be Step meeting","wheelChair":"False","day":"Tuesdays","start_time":"12:30 PM","end_time":"1:30 PM","type":"Closed Discussion","specialInterest":""},{"location":"Church of the Good Shepherd","meetingName":"ISHAM PARK - Isham Park","address":"620 Isham Street","tamuAddress":"620 ISHAM ST New York NY ","latitude":"40.8692532379724","longitude":"-73.9206625253877","addressFull":"620 Isham Street (Betw Cooper Street & Seaman Avenue) NY 10034","meetingDetails":"Open Anniv. Last Mon.","wheelChair":"False","day":"Mondays","start_time":"8:00 PM","end_time":"9:00 PM","type":"Closed Discussion","specialInterest":""},{"location":"COATHA Church on the Hill Senior Center","meetingName":"PROGRESS NOT PERFECTION -","address":"2005 Amsterdam Avenue","tamuAddress":"2005 AMSTERDAM AVE New York NY ","latitude":"40.8342635888105","longitude":"-73.9407982066313","addressFull":"2005 Amsterdam Avenue @ 159th Street 10032","meetingDetails":"Open Discussion 1st  2nd  4th and 5th when applicable. OPEN meeting is 3rd Fridays","wheelChair":"False","day":"Fridays","start_time":"7:30 PM","end_time":"8:30 PM","type":"Open Discussion","specialInterest":""},{"location":"Cornerstone Center","meetingName":"WOMENS NITE - Womens Nite","address":"178 Bennett Avenue","tamuAddress":"178 BENNETT AVE New York NY ","latitude":"40.8560152221363","longitude":"-73.9342776437758","addressFull":"178 Bennett Avenue  Kitchen (@ 189th Street) NY 10040","meetingDetails":"","wheelChair":"False","day":"Mondays","start_time":"7:30 PM","end_time":"8:30 PM","type":"Big Book","specialInterest":""},{"location":"Cornerstone Center","meetingName":"WOMENS NITE - Womens Nite","address":"178 Bennett Avenue","tamuAddress":"178 BENNETT AVE New York NY ","latitude":"40.856","longitude":"-73.9343","addressFull":"178 Bennett Avenue  Kitchen (@ 189th Street) NY 10040","meetingDetails":"","wheelChair":"False","day":"Mondays","start_time":"7:30 PM","end_time":"8:30 PM","type":"Big Book","specialInterest":""},{"location":"Our Lady Queen of Martyrs","meetingName":"UPPER MANHATTAN - Upper Manhattan","address":"91 Arden Street","tamuAddress":"91 ARDEN ST New York NY ","latitude":"40.8639","longitude":"-73.9283","addressFull":"91 Arden Street (2 blocks South of Dyckman Street  Betw. Broadway & Sherman Avenue) NY 10034","meetingDetails":"","wheelChair":"False","day":"Thursdays","start_time":"7:30 PM","end_time":"8:30 PM","type":"Open Discussion","specialInterest":""},{"location":"Holy Trinity Church","meetingName":"UPTOWN SATURDAY NIGHT - Uptown Saturday Night","address":"20 Cummings Street","tamuAddress":"20 CUMMINGS ST New York NY ","latitude":"40.8664805601797","longitude":"-73.9264534882199","addressFull":"20 Cummings Street (Betw. Broadway & Seaman Avenue) NY 10034","meetingDetails":"","wheelChair":"False","day":"Saturdays","start_time":"7:00 PM","end_time":"8:00 PM","type":"Closed Discussion","specialInterest":""},{"location":"Holy Rood Church","meetingName":"WASHINGTON HEIGHTS                  (:I) - Washington Heights    (:I)","address":"715 West 179th Street","tamuAddress":"715 W 179TH ST New York NY ","latitude":"40.8490796467369","longitude":"-73.9373313893221","addressFull":"715 West 179th Street @ Fort Washington NY 10033","meetingDetails":"","wheelChair":"False","day":"Tuesdays","start_time":"7:30 PM","end_time":"8:30 PM","type":"Open","specialInterest":""},{"location":"Cornerstone Center","meetingName":"WOMENS NITE - Womens Nite","address":"178 Bennett Avenue","tamuAddress":"178 BENNETT AVE New York NY ","latitude":"40.8560152221363","longitude":"-73.9342776437758","addressFull":"178 Bennett Avenue  Kitchen (@ 189th Street) NY 10040","meetingDetails":"","wheelChair":"False","day":"Mondays","start_time":"7:30 PM","end_time":"8:30 PM","type":"Big Book","specialInterest":""},{"location":"Cornerstone Center","meetingName":"WOMENS NITE - Womens Nite","address":"178 Bennett Avenue","tamuAddress":"178 BENNETT AVE New York NY ","latitude":"40.8560152221363","longitude":"-73.9342776437758","addressFull":"178 Bennett Avenue  Kitchen (@ 189th Street) NY 10040","meetingDetails":"","wheelChair":"False","day":"Mondays","start_time":"7:30 PM","end_time":"8:30 PM","type":"Big Book","specialInterest":""},{"location":"Cornerstone Center","meetingName":"WOMENS NITE - Womens Nite","address":"178 Bennett Avenue","tamuAddress":"178 BENNETT AVE New York NY ","latitude":"40.8560152221363","longitude":"-73.9342776437758","addressFull":"178 Bennett Avenue  Kitchen (@ 189th Street) NY 10040","meetingDetails":"","wheelChair":"False","day":"Mondays","start_time":"7:30 PM","end_time":"8:30 PM","type":"Big Book","specialInterest":""}]